     3.00           OBSERVATION DATA    G                   RINEX VERSION / TYPE
                    GMV                 20170106 001734 UTC PGM / RUN BY / DATE 
SWARM                                                       MARKER NAME         
SPACEBORNE                                                  MARKER TYPE         
NameOfObserver      ESA                                     OBSERVER / AGENCY   
123456              SWARM GPSR          TBD                 REC # / TYPE / VERS 
                    SWARM POD                               ANT # / TYPE        
 -5265383.2500  3906266.5400 -1896244.1300                  APPROX POSITION XYZ 
        0.0000        0.0000        0.0000                  ANTENNA: DELTA H/E/N
        0.0000        0.0000        0.0000                  ANTENNA: DELTA X/Y/Z
        0.0000        0.0000        0.0000                  ANTENNA: B.SIGHT XYZ
        0.0000        0.0000        0.0000                  CENTER OF MASS: XYZ 
G    8 L1C L2P C1C C1P C2P S1C S1P S2P                      SYS / # / OBS TYPES 
  2017     1     1    23     0   18.0000000     GPS         TIME OF FIRST OBS   
                                                            END OF HEADER       
> 2017 01 02 01 17 59.9988250  0  8
G07   8738429.978    -9748231.523    24645131.478    24645130.304    24645132.496          38.190 6        15.130 2        15.130 2
G23 -21190815.954   -31973000.444    19927872.789    19927872.605    19927872.041          54.530 9        41.060 6        41.060 6
G09  -8955609.216   -22251269.241    22106351.476    22106352.338    22106355.611          46.200 7        29.850 4        29.850 4
G21   3368567.473   -13328010.348    25686286.534    25686285.481    25686288.374          35.790 5        13.800 2        13.800 2
G26  -9769064.243   -22552140.288    22643271.300    22643271.674    22643276.707          45.890 7        31.430 5        31.430 5
G27 -23645492.306   -33541195.804    19421725.125    19421725.793    19421729.635          55.970 9        45.220 7        45.220 7
G08 -15820877.543   -27413376.554    20923686.632    20923687.621    20923692.383          51.530 8        38.890 6        38.890 6
G16   6131204.306   -10861400.025    20685535.555    20685535.791    20685536.999          52.470 8        38.440 6        38.440 6
> 2017 01 02 01 18  9.9988236  0  8
G07   8946923.171    -9585769.373    24684805.667    24684806.886    24684807.835          37.630 6        14.420 2        14.420 2
G23 -21181653.134   -31965860.623    19929616.445    19929616.319    19929615.881          54.540 9        41.110 6        41.110 6
G09  -8749198.143   -22090429.504    22145630.267    22145630.922    22145634.385          46.010 7        29.210 4        29.210 4
G21   3581712.173   -13161923.660    25726846.671    25726845.728    25726848.563          35.660 5        12.700 2        12.700 2
G26  -9484811.607   -22330644.791    22697363.072    22697363.308    22697368.202          45.520 7        31.080 5        31.080 5
G27 -23697195.451   -33581483.995    19411886.589    19411887.084    19411890.925          56.030 9        45.120 7        45.120 7
G08 -16126043.834   -27651168.440    20865616.135    20865616.417    20865621.386          51.790 8        39.350 6        39.350 6
G16   6412577.864   -10642147.944    20739079.413    20739079.436    20739080.615          52.390 8        38.070 6        38.070 6
> 2017 01 02 01 18 19.9988221  0  8
G07   9156976.367    -9422091.582    24724777.900    24724778.579    24724779.482          37.440 6        14.300 2        14.300 2
G23 -21168249.743   -31955416.451    19932167.174    19932166.916    19932166.490          54.470 9        41.120 6        41.120 6
G09  -8540544.229   -21927842.078    22185335.019    22185336.577    22185339.867          45.690 7        28.530 4        28.530 4
G21   3796903.098   -12994242.545    25767795.529    25767796.938    25767798.531          35.760 5        13.480 2        13.480 2
G26  -9197927.990   -22107099.196    22751954.970    22751955.367    22751960.750          45.240 7        30.640 5        30.640 5
G27 -23741633.387   -33616110.977    19403429.991    19403430.710    19403434.546          55.960 9        44.960 7        44.960 7
G08 -16426354.220   -27885176.502    20808468.366    20808469.206    20808474.181          52.030 8        39.530 6        39.530 6
G16   6698385.688   -10419440.598    20793466.911    20793466.917    20793468.108          52.200 8        38.060 6        38.060 6
> 2017 01 02 01 18 29.9988207  0  7
G07   9368564.919    -9257217.463    24765040.827    24765040.833    24765041.874          37.260 6        13.230 2        13.230 2
G23 -21150606.536   -31941668.528    19935524.476    19935524.373    19935523.867          54.450 9        40.890 6        40.890 6
G09  -8329676.789   -21763529.819    22225462.552    22225463.294    22225466.756          45.520 7        28.160 4        28.160 4
G26  -8908480.098   -21881555.465    22807035.002    22807035.421    22807040.655          45.040 7        30.030 5        30.030 5
G27 -23778792.343   -33645066.023    19396359.138    19396359.558    19396363.326          55.940 9        44.770 7        44.770 7
G08 -16721721.524   -28115332.823    20752262.196    20752262.719    20752267.343          52.190 8        39.410 6        39.410 6
G16   6988549.781   -10193338.762    20848683.286    20848683.309    20848684.655          52.010 8        37.830 6        37.830 6
> 2017 01 02 01 18 39.9988193  0  8
G07   9581664.352    -9091166.028    24805594.747    24805595.184    24805596.265          36.770 6        14.100 2        14.100 2
G23 -21128725.237   -31924618.182    19939687.799    19939688.236    19939687.632          54.500 9        41.010 6        41.010 6
G09  -8116625.333   -21597515.723    22266004.952    22266005.596    22266008.920          45.390 7        27.700 4        27.700 4
G14   1584930.875           0.000    24393210.508           0.000           0.000          35.700 5         0.000           0.000  
G26  -8616534.646   -21654065.581    22862590.727    22862590.992    22862595.926          44.740 7        29.800 4        29.800 4
G27 -23808661.209   -33668340.478    19390674.900    19390675.740    19390679.582          55.970 9        45.180 7        45.180 7
G08 -17012059.072   -28341569.832    20697012.469    20697013.153    20697017.835          52.250 8        39.500 6        39.500 6
G16   7282991.637    -9963903.586    20904713.365    20904713.773    20904715.027          51.850 8        37.610 6        37.610 6
> 2017 01 02 01 18 49.9988179  0  8
G07   9796250.163    -8923956.420    24846428.933    24846426.805    24846429.192          36.550 6        14.530 2        14.530 2
G23 -21102608.536   -31904267.527    19944658.350    19944657.993    19944657.613          54.510 9        40.960 6        40.960 6
G09  -7901419.403   -21429822.836    22306957.663    22306957.864    22306961.298          45.160 7        27.190 4        27.190 4
G14   1273982.700           0.000    24334038.046           0.000           0.000          35.710 5         0.000           0.000  
G26  -8322158.128   -21424681.345    22918608.291    22918608.872    22918613.847          44.720 7        29.070 4        29.070 4
G27 -23831231.464   -33685927.708    19386380.308    19386380.791    19386384.627          55.940 9        44.940 7        44.940 7
G08 -17297280.720   -28563820.448    20642736.836    20642737.284    20642742.121          52.340 8        39.630 6        39.630 6
G16   7581632.483    -9731196.478    20961543.593    20961543.305    20961544.455          51.690 8        37.050 6        37.050 6
> 2017 01 02 01 18 59.9988164  0  8
G07  10012297.567    -8755607.876    24887540.510    24887541.097    24887541.528          36.150 6        14.080 2        14.080 2
G23 -21072259.934   -31880619.292    19950433.149    19950433.236    19950432.781          54.580 9        41.200 6        41.200 6
G09  -7684088.725   -21260474.288    22348313.974    22348314.590    22348317.920          44.860 7        27.390 4        27.390 4
G14    963806.673           0.000    24275013.067           0.000           0.000          36.110 6         0.000           0.000  
G26  -8025417.066   -21193454.580    22975076.709    22975077.180    22975082.144          44.640 7        29.050 4        29.050 4
G27 -23846497.329   -33697823.193    19383475.216    19383475.757    19383479.490          55.880 9        44.800 7        44.800 7
G08 -17577301.339   -28782018.322    20589450.503    20589451.153    20589455.973          52.540 8        40.220 6        40.220 6
G16   7884392.926    -9495279.281    21019156.564    21019156.777    21019158.077          51.430 8        36.970 6        36.970 6
> 2017 01 02 01 19  9.9988150  0  8
G07  10229781.593    -8586139.969    24928925.659    24928926.384    24928928.213          36.100 6        14.230 2        14.230 2
G23 -21037683.939   -31853677.001    19957012.676    19957012.848    19957012.382          54.610 9        41.200 6        41.200 6
G09  -7464663.240   -21089493.472    22390068.830    22390069.750    22390073.321          44.630 7        27.310 4        27.310 4
G14    654436.263           0.000    24216140.777           0.000           0.000          36.080 6         0.000           0.000  
G26  -7726377.994   -20960437.187    23031981.796    23031982.366    23031987.272          44.330 7        28.560 4        28.560 4
G27 -23854455.755   -33704024.577    19381960.564    19381961.323    19381965.091          55.910 9        44.720 7        44.720 7
G08 -17852036.273   -28996097.484    20537170.082    20537170.881    20537175.632          52.670 8        40.540 6        40.540 6
G16   8191193.563    -9256213.887    21077538.616    21077538.834    21077540.370          51.140 8        36.520 6        36.520 6
> 2017 01 02 01 19 19.9988136  0  8
G07  10448677.321    -8415571.900    24970581.101    24970580.641    24970583.528          35.860 5        13.420 2        13.420 2
G23 -20998885.811   -31823444.746    19964395.761    19964395.899    19964395.439          54.540 9        41.040 6        41.040 6
G09  -7243172.851   -20916903.656    22432217.640    22432218.060    22432222.074          44.440 7        26.890 4        26.890 4
G14    345905.386   -14919648.307    24157431.356           0.000    24157432.443          36.540 6         0.000          11.670 1
G26  -7425107.059   -20725680.663    23089311.528    23089312.184    23089317.320          44.010 7        28.250 4        28.250 4
G27 -23855106.298   -33704531.512    19381836.938    19381837.110    19381840.906          55.940 9        44.760 7        44.760 7
G08 -18121402.089   -29205992.923    20485911.416    20485912.158    20485916.938          52.740 8        40.610 6        40.610 6
G16   8501954.563    -9014062.506    21136674.522    21136674.752    21136675.994          50.850 8        35.950 5        35.950 5
> 2017 01 02 01 19 29.9988122  0  8
G07  10668959.541    -8243923.480    25012497.537    25012498.118    25012499.659          35.490 5        14.320 2        14.320 2
G23 -20955871.899   -31789927.438    19972581.197    19972581.180    19972580.771          54.530 9        41.060 6        41.060 6
G09  -7019647.512   -20742728.093    22474753.353    22474753.882    22474757.000          44.270 7        26.950 4        26.950 4
G14     38248.016   -15159381.184    24098884.814           0.000    24098886.263          36.450 6         0.000          11.430 1
G26  -7121670.480   -20489236.636    23147053.844    23147054.149    23147059.848          43.650 7        27.600 4        27.600 4
G27 -23848451.239   -33699345.777    19383103.405    19383103.825    19383107.569          55.940 9        44.810 7        44.810 7
G08 -18385315.891   -29411640.003    20435690.289    20435691.014    20435695.678          52.860 8        40.820 6        40.820 6
G16   8816595.917    -8768887.474    21196548.910    21196549.186    21196550.417          50.610 8        35.590 5        35.590 5
> 2017 01 02 01 19 39.9988107  0  8
G07  10890602.613    -8071214.606    25054675.627    25054675.207    25054678.192          35.530 5        12.860 2        12.860 2
G23 -20908649.570   -31753130.836    19981567.402    19981567.374    19981566.954          54.580 9        41.130 6        41.130 6
G09  -6794117.656   -20566990.566    22517670.334    22517670.592    22517674.072          44.160 7        26.620 4        26.620 4
G14   -268502.093   -15398407.196    24040511.856    24040514.203    24040515.807          36.530 6        11.850 1        11.850 1
G26  -6816134.366   -20251156.599    23205194.980    23205196.141    23205200.846          43.340 7        26.860 4        26.860 4
G27 -23834495.672   -33688471.321    19385759.011    19385759.828    19385763.561          55.970 9        44.830 7        44.830 7
G08 -18643696.138   -29612975.235    20386522.096    20386522.895    20386527.658          52.960 8        41.040 6        41.040 6
G16   9135037.217    -8520751.441    21257146.342    21257146.457    21257147.867          50.370 8        35.440 5        35.440 5
